[{"id": "n4GL78xZDW2FJomsjITjGg", "alias": "ninja-ramen-lancaster", "name": "Ninja Ramen", "image_url": "https://s3-media1.fl.yelpcdn.com/bphoto/Iw3LgzKbCP1btk6AvytoTA/o.jpg", "is_closed": false, "url": "https://www.yelp.com/biz/ninja-ramen-lancaster?adjust_creative=R8VV_VqZUvTA5HiCINuLaw&utm_campaign=yelp_api_v3&utm_medium=api_v3_business_search&utm_source=R8VV_VqZUvTA5HiCINuLaw", "review_count": 26, "categories": [{"alias": "ramen", "title": "Ramen"}], "rating": 4.5, "coordinates": {"latitude": 40.074193163754, "longitude": -76.32604245096445}, "transactions": [], "location": {"address1": "2046 Fruitville Pike", "address2": "", "address3": null, "city": "Lancaster", "zip_code": "17601", "country": "US", "state": "PA", "display_address": ["2046 Fruitville Pike", "Lancaster, PA 17601"]}, "phone": "+17178859036", "display_phone": "(717) 885-9036", "distance": 8589.063221668417}, {"id": "QIuOfv6Sipw_gyjJZ690iQ", "alias": "issei-noodle-lancaster-lancaster", "name": "Issei Noodle Lancaster", "image_url": "https://s3-media4.fl.yelpcdn.com/bphoto/WFxud1uka-JOLGe6WM9Obw/o.jpg", "is_closed": false, "url": "https://www.yelp.com/biz/issei-noodle-lancaster-lancaster?adjust_creative=R8VV_VqZUvTA5HiCINuLaw&utm_campaign=yelp_api_v3&utm_medium=api_v3_business_search&utm_source=R8VV_VqZUvTA5HiCINuLaw", "review_count": 294, "categories": [{"alias": "ramen", "title": "Ramen"}, {"alias": "noodles", "title": "Noodles"}, {"alias": "soup", "title": "Soup"}], "rating": 4.0, "coordinates": {"latitude": 40.039017, "longitude": -76.306519}, "transactions": ["delivery"], "price": "$$", "location": {"address1": "44 N Queen St", "address2": "Ste 1013", "address3": "", "city": "Lancaster", "zip_code": "17603", "country": "US", "state": "PA", "display_address": ["44 N Queen St", "Ste 1013", "Lancaster, PA 17603"]}, "phone": "+17174496800", "display_phone": "(717) 449-6800", "distance": 6654.382822026517}, {"id": "FKDrzrfmx5YuVkBZ-JHX4w", "alias": "noodle-shack-lititz-2", "name": "Noodle Shack", "image_url": "https://s3-media3.fl.yelpcdn.com/bphoto/BFl_l1In_YDIAb8vwhcvhA/o.jpg", "is_closed": false, "url": "https://www.yelp.com/biz/noodle-shack-lititz-2?adjust_creative=R8VV_VqZUvTA5HiCINuLaw&utm_campaign=yelp_api_v3&utm_medium=api_v3_business_search&utm_source=R8VV_VqZUvTA5HiCINuLaw", "review_count": 75, "categories": [{"alias": "asianfusion", "title": "Asian Fusion"}, {"alias": "ramen", "title": "Ramen"}], "rating": 4.0, "coordinates": {"latitude": 40.130175, "longitude": -76.307694}, "transactions": ["pickup", "delivery"], "location": {"address1": "1032 Lititz Pike", "address2": "", "address3": null, "city": "Lititz", "zip_code": "17543", "country": "US", "state": "PA", "display_address": ["1032 Lititz Pike", "Lititz, PA 17543"]}, "phone": "+17176270375", "display_phone": "(717) 627-0375", "distance": 14913.010137928}, {"id": "iUx7FF6UM3TF9evk-JbVsQ", "alias": "onions-cafe-lancaster", "name": "Onion's Cafe", "image_url": "https://s3-media3.fl.yelpcdn.com/bphoto/RXNuBoNHDr7CI9HM-YD8eg/o.jpg", "is_closed": false, "url": "https://www.yelp.com/biz/onions-cafe-lancaster?adjust_creative=R8VV_VqZUvTA5HiCINuLaw&utm_campaign=yelp_api_v3&utm_medium=api_v3_business_search&utm_source=R8VV_VqZUvTA5HiCINuLaw", "review_count": 76, "categories": [{"alias": "korean", "title": "Korean"}, {"alias": "tradamerican", "title": "American (Traditional)"}], "rating": 4.0, "coordinates": {"latitude": 40.043698, "longitude": -76.3069658}, "transactions": ["pickup", "delivery"], "price": "$", "location": {"address1": "340 N Queen St", "address2": "", "address3": "", "city": "Lancaster", "zip_code": "17603", "country": "US", "state": "PA", "display_address": ["340 N Queen St", "Lancaster, PA 17603"]}, "phone": "+17173968777", "display_phone": "(717) 396-8777", "distance": 6934.240185645525}, {"id": "nFei3TlPFDLgIKJ0iqzEvQ", "alias": "shogun-japanese-steakhouse-and-sushi-lancaster-2", "name": "Shogun Japanese Steakhouse and Sushi", "image_url": "https://s3-media1.fl.yelpcdn.com/bphoto/HFgUbTNr-5sDULWCAGgtLQ/o.jpg", "is_closed": false, "url": "https://www.yelp.com/biz/shogun-japanese-steakhouse-and-sushi-lancaster-2?adjust_creative=R8VV_VqZUvTA5HiCINuLaw&utm_campaign=yelp_api_v3&utm_medium=api_v3_business_search&utm_source=R8VV_VqZUvTA5HiCINuLaw", "review_count": 81, "categories": [{"alias": "japanese", "title": "Japanese"}, {"alias": "steak", "title": "Steakhouses"}, {"alias": "sushi", "title": "Sushi Bars"}], "rating": 4.0, "coordinates": {"latitude": 40.066578, "longitude": -76.337663}, "transactions": ["pickup", "delivery"], "price": "$$", "location": {"address1": "680 Park City Ctr", "address2": null, "address3": "", "city": "Lancaster", "zip_code": "17601", "country": "US", "state": "PA", "display_address": ["680 Park City Ctr", "Lancaster, PA 17601"]}, "phone": "+17172991000", "display_phone": "(717) 299-1000", "distance": 7409.197306763633}, {"id": "yYrVcp_awxUbmsrbjaI-Mw", "alias": "wasabi-japanese-restaurant-willow-street-2", "name": "Wasabi Japanese Restaurant", "image_url": "https://s3-media2.fl.yelpcdn.com/bphoto/Ls-HToba9Uu_Tu1q0MTXlg/o.jpg", "is_closed": false, "url": "https://www.yelp.com/biz/wasabi-japanese-restaurant-willow-street-2?adjust_creative=R8VV_VqZUvTA5HiCINuLaw&utm_campaign=yelp_api_v3&utm_medium=api_v3_business_search&utm_source=R8VV_VqZUvTA5HiCINuLaw", "review_count": 131, "categories": [{"alias": "japanese", "title": "Japanese"}, {"alias": "sushi", "title": "Sushi Bars"}, {"alias": "asianfusion", "title": "Asian Fusion"}], "rating": 4.0, "coordinates": {"latitude": 39.983, "longitude": -76.281661}, "transactions": ["pickup", "delivery"], "price": "$$", "location": {"address1": "2600 Willow St Pike", "address2": "", "address3": "", "city": "Willow Street", "zip_code": "17584", "country": "US", "state": "PA", "display_address": ["2600 Willow St Pike", "Willow Street, PA 17584"]}, "phone": "+17174648878", "display_phone": "(717) 464-8878", "distance": 7974.20220697645}, {"id": "MhZrtysZmfQjQwrQWnc2Og", "alias": "noodle-king-lancaster", "name": "Noodle King", "image_url": "https://s3-media1.fl.yelpcdn.com/bphoto/2sk9CYIq_n-RfE1IIllpzg/o.jpg", "is_closed": false, "url": "https://www.yelp.com/biz/noodle-king-lancaster?adjust_creative=R8VV_VqZUvTA5HiCINuLaw&utm_campaign=yelp_api_v3&utm_medium=api_v3_business_search&utm_source=R8VV_VqZUvTA5HiCINuLaw", "review_count": 71, "categories": [{"alias": "vietnamese", "title": "Vietnamese"}, {"alias": "noodles", "title": "Noodles"}], "rating": 4.0, "coordinates": {"latitude": 40.02364418426283, "longitude": -76.2070808}, "transactions": ["pickup", "delivery"], "price": "$", "location": {"address1": "2350 Lincoln Hwy", "address2": "Ste 840", "address3": "", "city": "Lancaster", "zip_code": "17602", "country": "US", "state": "PA", "display_address": ["2350 Lincoln Hwy", "Ste 840", "Lancaster, PA 17602"]}, "phone": "+17172992799", "display_phone": "(717) 299-2799", "distance": 14094.458287193209}, {"id": "kyiIcw6DqvH0PTNUJJnEOA", "alias": "sakura-lancaster", "name": "Sakura", "image_url": "https://s3-media1.fl.yelpcdn.com/bphoto/D_YtKzXDTcIU6vhiD7r0ew/o.jpg", "is_closed": false, "url": "https://www.yelp.com/biz/sakura-lancaster?adjust_creative=R8VV_VqZUvTA5HiCINuLaw&utm_campaign=yelp_api_v3&utm_medium=api_v3_business_search&utm_source=R8VV_VqZUvTA5HiCINuLaw", "review_count": 131, "categories": [{"alias": "sushi", "title": "Sushi Bars"}, {"alias": "asianfusion", "title": "Asian Fusion"}], "rating": 3.5, "coordinates": {"latitude": 40.039164, "longitude": -76.305524}, "transactions": ["pickup", "delivery"], "price": "$$", "location": {"address1": "33 N Queen St", "address2": "", "address3": "", "city": "Lancaster", "zip_code": "17611", "country": "US", "state": "PA", "display_address": ["33 N Queen St", "Lancaster, PA 17611"]}, "phone": "+17175092838", "display_phone": "(717) 509-2838", "distance": 6733.435940530121}, {"id": "ig_DdLoxHm-8AERNdli-bA", "alias": "ginza-lancaster", "name": "Ginza", "image_url": "https://s3-media1.fl.yelpcdn.com/bphoto/tySl1eLQhGD7naV0W8_7oQ/o.jpg", "is_closed": false, "url": "https://www.yelp.com/biz/ginza-lancaster?adjust_creative=R8VV_VqZUvTA5HiCINuLaw&utm_campaign=yelp_api_v3&utm_medium=api_v3_business_search&utm_source=R8VV_VqZUvTA5HiCINuLaw", "review_count": 140, "categories": [{"alias": "sushi", "title": "Sushi Bars"}, {"alias": "chinese", "title": "Chinese"}], "rating": 4.0, "coordinates": {"latitude": 40.0541208693158, "longitude": -76.2516520730593}, "transactions": ["pickup", "delivery"], "price": "$$", "location": {"address1": "565 Greenfield Rd", "address2": "Ste 103", "address3": "", "city": "Lancaster", "zip_code": "17601", "country": "US", "state": "PA", "display_address": ["565 Greenfield Rd", "Ste 103", "Lancaster, PA 17601"]}, "phone": "+17177353888", "display_phone": "(717) 735-3888", "distance": 11521.903003700825}, {"id": "8dmbYfe0BlqN9Jmp0P8xKQ", "alias": "spring-house-brewing-company-lancaster", "name": "Spring House Brewing Company", "image_url": "https://s3-media2.fl.yelpcdn.com/bphoto/31WmwLvxW01cI51rN93XGA/o.jpg", "is_closed": false, "url": "https://www.yelp.com/biz/spring-house-brewing-company-lancaster?adjust_creative=R8VV_VqZUvTA5HiCINuLaw&utm_campaign=yelp_api_v3&utm_medium=api_v3_business_search&utm_source=R8VV_VqZUvTA5HiCINuLaw", "review_count": 214, "categories": [{"alias": "breweries", "title": "Breweries"}], "rating": 3.5, "coordinates": {"latitude": 40.03022, "longitude": -76.30838}, "transactions": ["delivery"], "price": "$$", "location": {"address1": "209 Hazel St", "address2": "", "address3": "", "city": "Lancaster", "zip_code": "17603", "country": "US", "state": "PA", "display_address": ["209 Hazel St", "Lancaster, PA 17603"]}, "phone": "+17179842530", "display_phone": "(717) 984-2530", "distance": 6001.292310314634}, {"id": "7JBQ0PB_bSfawA-qf_xPEw", "alias": "hunger-n-thirst-lancaster", "name": "Hunger N Thirst", "image_url": "https://s3-media1.fl.yelpcdn.com/bphoto/ALsTonA08PAKvNW-pL5QqA/o.jpg", "is_closed": false, "url": "https://www.yelp.com/biz/hunger-n-thirst-lancaster?adjust_creative=R8VV_VqZUvTA5HiCINuLaw&utm_campaign=yelp_api_v3&utm_medium=api_v3_business_search&utm_source=R8VV_VqZUvTA5HiCINuLaw", "review_count": 197, "categories": [{"alias": "bars", "title": "Bars"}, {"alias": "newamerican", "title": "American (New)"}, {"alias": "gastropubs", "title": "Gastropubs"}], "rating": 4.0, "coordinates": {"latitude": 40.0531058, "longitude": -76.3255057}, "transactions": ["delivery"], "price": "$$", "location": {"address1": "920 Landis Ave", "address2": "", "address3": "", "city": "Lancaster", "zip_code": "17603", "country": "US", "state": "PA", "display_address": ["920 Landis Ave", "Lancaster, PA 17603"]}, "phone": "+17172083808", "display_phone": "(717) 208-3808", "distance": 6597.00558637036}, {"id": "oHUQ7sB8_NsuQwud7x5shA", "alias": "root-lancaster", "name": "Root", "image_url": "https://s3-media3.fl.yelpcdn.com/bphoto/scOnXZF1zjtDI6ILpixkkA/o.jpg", "is_closed": false, "url": "https://www.yelp.com/biz/root-lancaster?adjust_creative=R8VV_VqZUvTA5HiCINuLaw&utm_campaign=yelp_api_v3&utm_medium=api_v3_business_search&utm_source=R8VV_VqZUvTA5HiCINuLaw", "review_count": 216, "categories": [{"alias": "salad", "title": "Salad"}, {"alias": "pizza", "title": "Pizza"}, {"alias": "sandwiches", "title": "Sandwiches"}], "rating": 4.0, "coordinates": {"latitude": 40.0425848856228, "longitude": -76.3100918081572}, "transactions": ["delivery"], "price": "$$", "location": {"address1": "223 W Walnut St", "address2": "", "address3": "", "city": "Lancaster", "zip_code": "17602", "country": "US", "state": "PA", "display_address": ["223 W Walnut St", "Lancaster, PA 17602"]}, "phone": "+17175170918", "display_phone": "(717) 517-0918", "distance": 6648.707622295014}, {"id": "5xKDaxm9lLfUBwg286adZQ", "alias": "nissin-foods-usa-lancaster", "name": "Nissin Foods USA", "image_url": "", "is_closed": false, "url": "https://www.yelp.com/biz/nissin-foods-usa-lancaster?adjust_creative=R8VV_VqZUvTA5HiCINuLaw&utm_campaign=yelp_api_v3&utm_medium=api_v3_business_search&utm_source=R8VV_VqZUvTA5HiCINuLaw", "review_count": 1, "categories": [{"alias": "ramen", "title": "Ramen"}], "rating": 1.0, "coordinates": {"latitude": 40.05222, "longitude": -76.38885}, "transactions": [], "location": {"address1": "2901 Hempland Rd", "address2": "", "address3": "", "city": "Lancaster", "zip_code": "17601", "country": "US", "state": "PA", "display_address": ["2901 Hempland Rd", "Lancaster, PA 17601"]}, "phone": "+17172850945", "display_phone": "(717) 285-0945", "distance": 5459.203577803694}, {"id": "pj97qeiwdyZgQaCqXsGXZg", "alias": "eastern-palace-lancaster", "name": "Eastern Palace", "image_url": "https://s3-media3.fl.yelpcdn.com/bphoto/NL7KWzeqp8fStWj0DmiyVg/o.jpg", "is_closed": false, "url": "https://www.yelp.com/biz/eastern-palace-lancaster?adjust_creative=R8VV_VqZUvTA5HiCINuLaw&utm_campaign=yelp_api_v3&utm_medium=api_v3_business_search&utm_source=R8VV_VqZUvTA5HiCINuLaw", "review_count": 152, "categories": [{"alias": "sushi", "title": "Sushi Bars"}, {"alias": "thai", "title": "Thai"}, {"alias": "burmese", "title": "Burmese"}], "rating": 4.5, "coordinates": {"latitude": 40.0394087363819, "longitude": -76.3652090728283}, "transactions": ["pickup", "delivery"], "price": "$$", "location": {"address1": "2206 Columbia Ave", "address2": "", "address3": null, "city": "Lancaster", "zip_code": "17603", "country": "US", "state": "PA", "display_address": ["2206 Columbia Ave", "Lancaster, PA 17603"]}, "phone": "+17172086356", "display_phone": "(717) 208-6356", "distance": 3860.1306080471336}]